{"version": 0.6, "generator": "Overpass API 0.7.62.11 87bfad18", "osm3s": {"timestamp_osm_base": "2026-05-07T06:49:02Z", "copyright": "The data included in this document is from www.openstreetmap.org. The data is made available under ODbL."}, "elements": [{"type": "node", "id": 1440396036, "lat": 51.5422423, "lon": -0.0074042}, {"type": "node", "id": 1440396059, "lat": 51.5423485, "lon": -0.0062278}, {"type": "node", "id": 1442035277, "lat": 51.5434237, "lon": -0.0065561}, {"type": "node", "id": 1595903282, "lat": 51.5407941, "lon": 0.0023322}, {"type": "node", "id": 1595903283, "lat": 51.5407145, "lon": 0.0020847}, {"type": "node", "id": 1645908290, "lat": 51.4711932, "lon": -0.4585279}, {"type": "node", "id": 1735809529, "lat": 51.375295, "lon": -0.1012268}, {"type": "node", "id": 2073631768, "lat": 51.3753711, "lon": -0.1009464, "tags": {"addr:city": "Croydon", "addr:housenumber": "42-46", "addr:postcode": "CR0 1UG", "addr:street": "North End", "leisure": "amusement_arcade", "name": "The Heart of Gaming", "source": "survey", "website": "https://www.heartofgaming.co.uk/", "wikidata": "Q22909340", "wikipedia": "en:The Heart of Gaming"}}, {"type": "node", "id": 2073631828, "lat": 51.3751536, "lon": -0.1015135}, {"type": "node", "id": 2073631832, "lat": 51.3751739, "lon": -0.1014621}, {"type": "node", "id": 2073631837, "lat": 51.3752023, "lon": -0.1015562}, {"type": "node", "id": 2073631840, "lat": 51.375203, "lon": -0.1013885}, {"type": "node", "id": 2073631846, "lat": 51.375247, "lon": -0.1014248}, {"type": "node", "id": 2073631849, "lat": 51.3752472, "lon": -0.1011967}, {"type": "node", "id": 2490472666, "lat": 51.5184585, "lon": -0.1676631}, {"type": "node", "id": 2490472672, "lat": 51.5184924, "lon": -0.1677121}, {"type": "node", "id": 2490472685, "lat": 51.5185549, "lon": -0.1674846}, {"type": "node", "id": 2490472689, "lat": 51.5185894, "lon": -0.1675337}, {"type": "node", "id": 2493007598, "lat": 51.5407025, "lon": 0.0020491}, {"type": "node", "id": 2493043965, "lat": 51.5407778, "lon": 0.0023481, "tags": {"entrance": "main"}}, {"type": "node", "id": 2493043970, "lat": 51.540668, "lon": 0.0020819}, {"type": "node", "id": 2493043974, "lat": 51.540687, "lon": 0.0020637, "tags": {"entrance": "main"}}, {"type": "node", "id": 2493043977, "lat": 51.5407584, "lon": 0.002367}, {"type": "node", "id": 2547573610, "lat": 51.5537599, "lon": -0.2935768}, {"type": "node", "id": 2547573618, "lat": 51.5538016, "lon": -0.2935157}, {"type": "node", "id": 2547573631, "lat": 51.5538475, "lon": -0.2934907}, {"type": "node", "id": 2547630007, "lat": 51.5538206, "lon": -0.2934945}, {"type": "node", "id": 2547630025, "lat": 51.5539181, "lon": -0.2937046}, {"type": "node", "id": 2547630029, "lat": 51.5539634, "lon": -0.2935365}, {"type": "node", "id": 2951160155, "lat": 51.5243398, "lon": -0.1236729}, {"type": "node", "id": 2951160156, "lat": 51.5243888, "lon": -0.1234464}, {"type": "node", "id": 2951160159, "lat": 51.5242429, "lon": -0.1236186}, {"type": "node", "id": 2951160160, "lat": 51.5242937, "lon": -0.1233899}, {"type": "node", "id": 3397886782, "lat": 51.5196865, "lon": -0.1169088, "tags": {"addr:city": "London", "addr:housenumber": "1a", "addr:postcode": "WC1R 4AX", "addr:street": "Princeton Street", "leisure": "amusement_arcade", "name": "Novelty Automation", "opening_hours": "Tu,We,Fr,Sa 11:00-18:00; Th 12:00-20:00; Su 12:00-18:00", "operator": "Tim Hunkin", "tourism": "attraction", "website": "https://novelty-automation.com/", "wikidata": "Q55098971", "wikipedia": "en:Novelty Automation"}}, {"type": "node", "id": 3888985036, "lat": 51.4560672, "lon": -0.1933351, "tags": {"addr:city": "London", "addr:postcode": "SW18 4TF", "addr:street": "Wandsworth High Street", "addr:unit": "Unit 10", "fhrs:authority": "Wandsworth", "fhrs:id": "1573594", "fhrs:local_authority_id": "PI/000459894", "leisure": "amusement_arcade", "level": "0", "name": "Gravity Max", "opening_hours": "Su-Th 08:30-23:00, Fr,Sa 08:30-00:30", "website": "https://gravity-global.com/max/wandsworth"}}, {"type": "node", "id": 4329936988, "lat": 51.4712332, "lon": -0.4584346}, {"type": "node", "id": 4329937189, "lat": 51.4712812, "lon": -0.4584975}, {"type": "node", "id": 4329937190, "lat": 51.4712426, "lon": -0.4585878}, {"type": "node", "id": 4591741595, "lat": 51.5407469, "lon": 0.0021865}, {"type": "node", "id": 4639477131, "lat": 51.5370172, "lon": -0.0755129}, {"type": "node", "id": 4639477132, "lat": 51.537029, "lon": -0.07581}, {"type": "node", "id": 4639477139, "lat": 51.5371086, "lon": -0.0755035}, {"type": "node", "id": 4639477142, "lat": 51.5371204, "lon": -0.0758006}, {"type": "node", "id": 5480809514, "lat": 51.5126831, "lon": -0.1335662, "tags": {"addr:city": "London", "addr:housenumber": "89-91", "addr:street": "Wardour Street", "description": "Gaming machines, American pool, video games, casino.", "leisure": "amusement_arcade", "name": "Las Vegas Arcade", "website": "https://www.lasvegasarcadesoho.co.uk/"}}, {"type": "node", "id": 5564208435, "lat": 51.3710622, "lon": -0.1230054, "tags": {"addr:city": "Croydon", "addr:postcode": "CR0 4AA", "addr:street": "Mill Lane", "addr:unit": "Unit 10", "leisure": "amusement_arcade", "name": "Flip Out London"}}, {"type": "node", "id": 6260876829, "lat": 51.5468598, "lon": -0.0241819, "tags": {"access": "customers", "entrance": "yes"}}, {"type": "node", "id": 6260876831, "lat": 51.5468315, "lon": -0.0241464}, {"type": "node", "id": 6260876848, "lat": 51.5469166, "lon": -0.0242531}, {"type": "node", "id": 6260876849, "lat": 51.5470355, "lon": -0.0240074}, {"type": "node", "id": 6260876852, "lat": 51.5469505, "lon": -0.0239007}, {"type": "node", "id": 6260876853, "lat": 51.5470157, "lon": -0.0239824}, {"type": "node", "id": 6260876860, "lat": 51.5468914, "lon": -0.0240226}, {"type": "node", "id": 6968720787, "lat": 51.5407119, "lon": 0.0022202}, {"type": "node", "id": 7717850285, "lat": 51.5155639, "lon": -0.1363857, "tags": {"addr:city": "London", "addr:housenumber": "53-54", "addr:postcode": "W1F 8SP", "addr:street": "Berwick Street", "amenity": "bar", "check_date": "2025-11-03", "leisure": "amusement_arcade", "name": "NQ64", "opening_hours": "Mo-Fr 15:00-27:00; Sa 12:00-27:00; Su 12:00-24:00", "website": "https://nq64.co.uk/soho"}}, {"type": "node", "id": 7804693873, "lat": 51.5137015, "lon": -0.3066658, "tags": {"check_date": "2024-10-02", "leisure": "amusement_arcade", "level": "0", "name": "Navrtar", "wheelchair": "yes"}}, {"type": "node", "id": 9143453385, "lat": 51.579181, "lon": -0.0989044, "tags": {"addr:city": "London", "addr:housenumber": "48", "addr:postcode": "N4 1AG", "addr:street": "Grand Parade", "addr:suburb": "Harringay", "leisure": "amusement_arcade", "name": "Golden Slots"}}, {"type": "node", "id": 9422368118, "lat": 51.4934121, "lon": -0.0951789, "tags": {"addr:city": "London", "addr:housenumber": "20", "addr:postcode": "SE17 1AZ", "addr:street": "Ash Avenue", "bar": "yes", "brand": "Four Quarters", "brand:wikidata": "Q119701878", "dog": "leashed", "leisure": "amusement_arcade", "name": "Four Quarters", "reservation": "yes", "website": "https://fourquarters.bar/location/elephant-castle-arcade-bar/"}}, {"type": "node", "id": 9422825096, "lat": 51.5486695, "lon": -0.1283558, "tags": {"addr:city": "London", "addr:housename": "Units 1 & 2", "addr:housenumber": "400-404", "addr:postcode": "N7 9LR", "addr:street": "York Way", "leisure": "amusement_arcade", "name": "DNA VR", "website": "https://www.dnavr.co.uk/"}}, {"type": "node", "id": 10076908424, "lat": 51.5768833, "lon": 0.177858, "tags": {"addr:city": "Romford", "addr:housenumber": "57-59", "addr:postcode": "RM1 1JL", "addr:street": "High Street", "description": "Laser Quest Romford welcomes you to take part in the ultimate Laser Quest sci-fi action adventure!", "email": "info@laserquestromford.com", "leisure": "amusement_arcade", "name": "Laser Quest Romford", "phone": "+44 1708 579929", "website": "https://laserquestromford.com"}}, {"type": "node", "id": 10126676721, "lat": 51.5120454, "lon": -0.3064028, "tags": {"check_date": "2023-12-22", "leisure": "amusement_arcade", "level": "0", "name": "Boom Battle Bar", "wheelchair": "yes"}}, {"type": "node", "id": 10140271346, "lat": 51.542326, "lon": -0.0062138}, {"type": "node", "id": 10140271350, "lat": 51.5418688, "lon": -0.0070001}, {"type": "node", "id": 10140271354, "lat": 51.5420618, "lon": -0.0072597}, {"type": "node", "id": 10140271355, "lat": 51.542203, "lon": -0.0074692}, {"type": "node", "id": 10142424096, "lat": 51.5384505, "lon": -0.103236, "tags": {"leisure": "amusement_arcade", "name": "New Meta", "website": "https://playnewmeta.gg/"}}, {"type": "node", "id": 10236390321, "lat": 51.516517, "lon": -0.1243807, "tags": {"leisure": "amusement_arcade", "name": "Sandbox VR", "virtual_reality": "yes", "website": "https://sandboxvr.com/"}}, {"type": "node", "id": 10278996542, "lat": 51.5420726, "lon": -0.0066375}, {"type": "node", "id": 10278996545, "lat": 51.5423501, "lon": -0.0064538}, {"type": "node", "id": 10278996553, "lat": 51.5423317, "lon": -0.0069223}, {"type": "node", "id": 10278996554, "lat": 51.5423434, "lon": -0.0066876}, {"type": "node", "id": 10278996555, "lat": 51.5423467, "lon": -0.0065677}, {"type": "node", "id": 10278996559, "lat": 51.5423083, "lon": -0.0071521}, {"type": "node", "id": 10278996576, "lat": 51.5422866, "lon": -0.0072634}, {"type": "node", "id": 10282592455, "lat": 51.5420536, "lon": -0.007274}, {"type": "node", "id": 10692936225, "lat": 51.506113, "lon": -0.0221117, "tags": {"addr:city": "London", "addr:housenumber": "25 - 35", "addr:postcode": "E14 4DH", "addr:street": "Fisherman's Walk", "contact:phone": "+44 204 599 3666", "leisure": "amusement_arcade", "name": "Fairgame", "opening_hours": "Tu-Th 11:30-24:00; Fr-Sa 11:30-25:00; Su 11:30-23:00", "website": "https://www.wearefairgame.com/"}}, {"type": "node", "id": 11047352456, "lat": 51.5422144, "lon": -0.14498, "tags": {"leisure": "amusement_arcade", "name": "Babylon Park", "website": "https://www.babylonpark.com/"}}, {"type": "node", "id": 11169984696, "lat": 51.5139386, "lon": -0.4732366, "tags": {"leisure": "amusement_arcade", "name": "Reels Casino Slots"}}, {"type": "node", "id": 11217586440, "lat": 51.5042342, "lon": -0.1034685, "tags": {"addr:city": "London", "addr:housename": "Arch 3", "addr:housenumber": "83", "addr:postcode": "SE1 0XN", "addr:street": "Scoresby Street", "email": "help@immersivegamebox.com", "leisure": "amusement_arcade", "name": "Immersive Gamebox", "opening_hours": "Mo,Tu 10:00-22:00; We 10:00-23:00; Th 11:00-23:00; Fr,Sa 10:00-23:00, Su 10:00-20:00", "operator": "Immersive Gamebox", "website": "https://immersivegamebox.com/locations/southbank-london/"}}, {"type": "node", "id": 11267868905, "lat": 51.4109545, "lon": -0.3006006, "tags": {"addr:housenumber": "146-152", "addr:street": "Clarence Street", "check_date": "2024-11-14", "disused:name": "Wilko", "leisure": "amusement_arcade", "name": "Urban Fun", "website": "https://urban-fun.co.uk/locations/kingston-upon-thames/"}}, {"type": "node", "id": 11525218842, "lat": 51.5021525, "lon": 0.0035914}, {"type": "node", "id": 11525218843, "lat": 51.5022295, "lon": 0.0035555}, {"type": "node", "id": 11525218844, "lat": 51.5022145, "lon": 0.0034634}, {"type": "node", "id": 11525218845, "lat": 51.5023155, "lon": 0.0034212}, {"type": "node", "id": 11525218846, "lat": 51.5023425, "lon": 0.0035943}, {"type": "node", "id": 11525218847, "lat": 51.5021697, "lon": 0.0036882}, {"type": "node", "id": 11761531750, "lat": 51.5420681, "lon": -0.0072692}, {"type": "node", "id": 11918084885, "lat": 51.5422158, "lon": -0.0074885}, {"type": "node", "id": 11918084886, "lat": 51.5421983, "lon": -0.0074621}, {"type": "node", "id": 11918084899, "lat": 51.542229, "lon": -0.0074466, "tags": {"entrance": "main"}}, {"type": "node", "id": 12180060330, "lat": 51.5363556, "lon": -0.2481922, "tags": {"addr:city": "London", "addr:housenumber": "10", "addr:street": "High Street Harlesden", "addr:substreet": "Bank Buildings", "leisure": "amusement_arcade", "level": "0", "name": "Agora Gaming", "source": "Bing street side imagery"}}, {"type": "node", "id": 12569551425, "lat": 51.4680069, "lon": -0.0670145, "tags": {"addr:city": "London", "addr:country": "GB", "addr:housenumber": "187", "addr:postcode": "SE15 4TP", "addr:street": "Rye Lane", "amenity": "bar", "bar": "yes", "brand": "Four Quarters", "brand:wikidata": "Q119701878", "brewery": "yes", "dog": "leashed", "fhrs:id": "708633", "food": "yes", "leisure": "amusement_arcade", "name": "Four Quarters", "outdoor_seating": "no", "reservation": "yes", "website": "https://fourquarters.bar/location/arcade-bar-south-london/"}}, {"type": "node", "id": 12593509476, "lat": 51.5423496, "lon": -0.0063528}, {"type": "node", "id": 12593510024, "lat": 51.5433805, "lon": -0.0066227}, {"type": "node", "id": 12593510042, "lat": 51.5435481, "lon": -0.0067483}, {"type": "node", "id": 12593510043, "lat": 51.5435071, "lon": -0.0068162}, {"type": "node", "id": 12633723828, "lat": 51.5754113, "lon": -0.0877368, "tags": {"addr:city": "London", "addr:housenumber": "199", "addr:postcode": "N4 1DN", "addr:street": "Eade Road", "leisure": "amusement_arcade", "name": "FreePlayCity", "opening_hours": "Th-Fr 17:00-23:00; Sa-Su 13:00-20:00", "website": "https://freeplaycity.com/"}}, {"type": "node", "id": 12836989701, "lat": 51.5041673, "lon": -0.0951914, "tags": {"amenity": "bar", "bar": "yes", "branch": "London Bridge", "brand": "Four Quarters", "brand:wikidata": "Q119701878", "dog": "leashed", "leisure": "amusement_arcade", "name": "Four Quarters", "outdoor_seating": "no", "reservation": "yes", "website": "https://fourquarters.bar/"}}, {"type": "node", "id": 12850312693, "lat": 51.5423364, "lon": -0.0068688}, {"type": "node", "id": 12850312694, "lat": 51.5423194, "lon": -0.0070604}, {"type": "node", "id": 13202976189, "lat": 51.513897, "lon": -0.0960078, "tags": {"leisure": "amusement_arcade", "name": "F1 Arcade"}}, {"type": "node", "id": 13699098359, "lat": 51.4937616, "lon": -0.0845169, "tags": {"check_date": "2026-04-01", "leisure": "amusement_arcade", "name": "Stephanie's Multicentre"}}, {"type": "way", "id": 197065389, "nodes": [2073631837, 2073631828, 2073631832, 2073631840, 2073631849, 1735809529, 2073631846, 2073631837], "tags": {"addr:city": "Croydon", "addr:housenumber": "57", "addr:postcode": "CR0 1TG", "addr:street": "North End", "building": "retail", "leisure": "amusement_arcade", "name": "Palace Amusements", "source": "survey"}}, {"type": "way", "id": 241397035, "nodes": [2490472666, 2490472672, 2490472689, 2490472685, 2490472666], "tags": {"addr:city": "London", "addr:country": "GB", "addr:housenumber": "212", "addr:postcode": "W2 1DH", "addr:street": "Edgware Road", "building": "yes", "building:colour": "white", "building:levels": "4", "building:material": "plaster", "check_date": "2023-04-22", "leisure": "amusement_arcade", "name": "Reel Time", "website": "https://citikey.uk/display/reel-time-DTRHV"}}, {"type": "way", "id": 247912778, "nodes": [2547630029, 2547630025, 2547573610, 2547573618, 2547630007, 2547573631, 2547630029], "tags": {"area": "yes", "leisure": "amusement_arcade", "level": "0", "name": "Silver Time", "source": "photograph"}}, {"type": "way", "id": 291650391, "nodes": [2951160155, 2951160156, 2951160160, 2951160159, 2951160155], "tags": {"building": "yes", "check_date": "2025-08-17", "leisure": "amusement_arcade", "name": "Funland", "opening_hours": "Mo-Su 10:00-22:00", "wheelchair": "yes"}}, {"type": "way", "id": 435056789, "nodes": [4329936988, 4329937189, 4329937190, 1645908290, 4329936988], "tags": {"leisure": "amusement_arcade", "level": "0", "name": "Voyager"}}, {"type": "way", "id": 469649787, "nodes": [4639477132, 4639477142, 4639477139, 4639477131, 4639477132], "tags": {"addr:city": "London", "addr:housenumber": "336", "addr:street": "Acton Mews", "building": "yes", "contact:email": "contact@other.world", "contact:facebook": "https://www.facebook.com/otherworld", "contact:phone": "+44 20 8050 1550", "contact:twitter": "otherworld", "leisure": "amusement_arcade", "name": "Otherworld", "virtual_reality": "yes", "website": "https://www.other.world"}}, {"type": "way", "id": 668568686, "nodes": [6260876831, 6260876860, 6260876852, 6260876853, 6260876849, 6260876848, 6260876829, 6260876831], "tags": {"addr:city": "London", "addr:housenumber": "24", "addr:postcode": "E15 2GW", "addr:street": "East Bay Lane", "addr:unit": "Unit 8", "bar": "yes", "branch": "Here East", "brand": "Four Quarters", "brand:wikidata": "Q119701878", "check_date": "2023-06-18", "cuisine": "pizza", "diet:vegan": "yes", "dog": "yes", "fhrs:id": "1374768", "food": "yes", "leisure": "amusement_arcade", "name": "Four Quarters", "opening_hours": "Mo-We 12:00-23:30; Th 12:00-00:00; Fr-Sa 12:00-00:30; Su 12:00-21:00", "payment:cash": "no", "payment:credit_cards": "yes", "payment:debit_cards": "yes", "phone": "+44 7722 144780", "toilets": "yes", "toilets:wheelchair": "yes", "website": "https://fourquarters.bar", "wheelchair": "yes"}}, {"type": "way", "id": 744583934, "nodes": [4591741595, 1595903282, 2493043965, 2493043977, 6968720787, 2493043970, 2493043974, 2493007598, 1595903283, 4591741595], "tags": {"addr:city": "London", "addr:housenumber": "1", "addr:postcode": "E15 4PH", "addr:street": "West Ham Lane", "addr:suburb": "Stratford", "building:part": "retail", "check_date": "2023-04-17", "leisure": "amusement_arcade", "level": "0", "name": "Showman Amusements"}}, {"type": "way", "id": 1240494141, "nodes": [11525218847, 11525218846, 11525218845, 11525218844, 11525218843, 11525218842, 11525218847], "tags": {"addr:unit": "L6", "check_date": "2025-02-27", "indoor": "room", "leisure": "amusement_arcade", "level": "0", "name": "Virgin Media Gamepad", "opening_hours": "\"by appointment\"", "website": "https://home.virginmedia.com/virgin-tv-edit/tips-and-tricks/virgin-media-gamepad"}}, {"type": "way", "id": 1294997831, "nodes": [10278996576, 1440396036, 11918084899, 11918084885, 10140271355, 11918084886, 11761531750, 10140271354, 10282592455, 10140271350, 10278996542, 10140271346, 1440396059, 12593509476, 10278996545, 10278996555, 10278996554, 12850312693, 10278996553, 12850312694, 10278996559, 10278996576], "tags": {"addr:city": "London", "addr:housename": "Chestnut Plaza, Westfield Stratford City", "addr:postcode": "E20 1GL", "addr:street": "Montfichet Road", "addr:unit": "1-7", "building": "yes", "building:levels": "4", "fhrs:id": "1723256", "leisure": "amusement_arcade", "level": "0;1;2;3", "name": "Gravity Max", "note": "25/01412/FUL seems to replace all this with \"a theatrical and immersive entertainment and hospitality use, comprising combined performance spaces with restaurant and bar\" - called \"Phantom Peak\", a \u201csteampunk... Western-style immersive world\"", "ref:GB:lbn:planning": "25/01412/FUL", "was:ref:GB:lldc:planning": "15/00358/OUT;22/00068/FUL"}}, {"type": "way", "id": 1360397219, "nodes": [12593510043, 12593510024, 1442035277, 12593510042, 12593510043], "tags": {"addr:city": "London", "addr:housename": "Westfield Stratford City", "addr:street": "Montfichet Road", "addr:unit:ref": "SU1073", "check_date": "2026-04-29", "disused:shop": "clothes", "indoor": "room", "leisure": "amusement_arcade", "level": "0", "name": "F1 Box", "room": "shop", "was:name": "NA Menswear;G-Star Raw"}}]}